{"results": [
        {
        	"id": "20652",
            "title": "Windows Blue Screen",
            "description": "A Blue Screen of Death, also called a STOP Error, will appear when an issue is so serious that Windows must stop completely.",
            "type": "software",
            "position": 
            	{
            		"latitude": 40.281848,
            		"longitude": -3.819122
            	}
        },
        {
        	"id": "20661",
            "title": "Install Libre office",
            "description": "Desinstall MS Office and install Libre Office.",
            "type": "software",
            "position": 
            	{
            		"latitude": 40.277133,
            		"longitude": -3.792171
            	}
        },
         {
         	"id": "20762",
            "title": "Printer update firmware",
            "description": "The latest release of printer drivers have been updated to support installation and functionality in Case.",
            "type": "printer",
            "position": 
            	{
            		"latitude": 40.290229,
            		"longitude": -3.785133
            	}
        },
        {
        	"id": "20853",
            "title": "Install RAM",
            "description": "Install new RAM module in computer DFD3423.",
            "type": "workstation",
            "position": 
            	{
            		"latitude": 40.278574,
            		"longitude": -3.765736
            	}
        },
        {
        	"id": "21666",
            "title": "Unknown problem",
            "description": "Visit the office to know the problem properly.",
            "type": "unknown",
            "position": 
            	{
            		"latitude": 40.288265,
            		"longitude": -3.744450
            	}
        },
         {
         	"id": "20742",
            "title": "Server halt",
            "description": "Server with a problem of hardware.",
            "type": "server",
            "position": 
            	{
            		"latitude": 40.261678,
            		"longitude": -3.763332
            	}
        }
    ]
}
